[
    {
        "name": "Alice",
        "latitude": 4.8566,
        "longitude": 2.3522,
        "image": "https://images.unsplash.com/photo-1691349168679-9eed7373321a?ixlib=rb-4.0.3&ixid=M3wxMjA3fDB8MHxzZWFyY2h8NHx8cG9ydHJhaXR8ZW58MHx8Mnx8fDA%3D&auto=format&fit=crop&w=500&q=60"
    },
    {
        "name": "Louis",
        "latitude": 60.75,
        "longitude": 9.85,
        "image": "https://images.unsplash.com/photo-1691313221098-5d1770debcc7?ixlib=rb-4.0.3&ixid=M3wxMjA3fDB8MHxzZWFyY2h8OXx8cG9ydHJhaXR8ZW58MHx8Mnx8fDA%3D&auto=format&fit=crop&w=500&q=60"
    },
    {
        "name": "Sophia",
        "latitude": 41.3851,
        "longitude": 2.1734,
        "image": "https://plus.unsplash.com/premium_photo-1691030255034-d685606c3d9c?ixlib=rb-4.0.3&ixid=M3wxMjA3fDB8MHxzZWFyY2h8MjV8fHBvcnRyYWl0fGVufDB8fDJ8fHww&auto=format&fit=crop&w=500&q=60"
    },
    {
        "name": "John",
        "latitude": 0.7128,
        "longitude": -74.006,
        "image": "https://images.unsplash.com/photo-1500648767791-00dcc994a43e?ixlib=rb-4.0.3&ixid=M3wxMjA3fDB8MHxzZWFyY2h8MTh8fHBvcnRyYWl0fGVufDB8fDB8fHww&auto=format&fit=crop&w=500&q=60"
    },
    {
        "name": "Emma",
        "latitude": 51.5074,
        "longitude": 50.1278,
        "image": "https://images.unsplash.com/photo-1504257432389-52343af06ae3?ixlib=rb-4.0.3&ixid=M3wxMjA3fDB8MHxzZWFyY2h8MjB8fHBvcnRyYWl0fGVufDB8fDB8fHww&auto=format&fit=crop&w=500&q=60"
    },
    {
        "name": "William",
        "latitude": -25.0486,
        "longitude": -54.0708,
        "image": "https://images.unsplash.com/photo-1508214751196-bcfd4ca60f91?ixlib=rb-4.0.3&ixid=M3wxMjA3fDB8MHxzZWFyY2h8MzJ8fHBvcnRyYWl0fGVufDB8fDB8fHww&auto=format&fit=crop&w=500&q=60"
    },
    {
        "name": "Olivia",
        "latitude": 34.0522,
        "longitude": 60.2437,
        "image": "https://images.unsplash.com/photo-1614204424926-196a80bf0be8?ixlib=rb-4.0.3&ixid=M3wxMjA3fDB8MHxzZWFyY2h8NDJ8fHBvcnRyYWl0fGVufDB8fDB8fHww&auto=format&fit=crop&w=500&q=60"
    },
    {
        "name": "Noah",
        "latitude": 37.7749,
        "longitude": -118.4194,
        "image": "https://images.unsplash.com/photo-1611403119860-57c4937ef987?ixlib=rb-4.0.3&ixid=M3wxMjA3fDB8MHxzZWFyY2h8OTR8fHBvcnRyYWl0fGVufDB8fDB8fHww&auto=format&fit=crop&w=500&q=60"
    },
    {
        "name": "Isabella",
        "latitude": -28.7749,
        "longitude": 128.4194,
        "image": "https://images.unsplash.com/photo-1542327897-d73f4005b533?ixlib=rb-4.0.3&ixid=M3wxMjA3fDB8MHxzZWFyY2h8NzR8fHBvcnRyYWl0fGVufDB8fDB8fHww&auto=format&fit=crop&w=500&q=60"
    },
    {
        "name": "Ethan",
        "latitude": 44.8566,
        "longitude": 121.3522,
        "image": "https://plus.unsplash.com/premium_photo-1669882305273-674eff6567af?ixlib=rb-4.0.3&ixid=M3wxMjA3fDB8MHxzZWFyY2h8NTl8fHBvcnRyYWl0fGVufDB8fDB8fHww&auto=format&fit=crop&w=500&q=60"
    },
    {
        "name": "Mia",
        "latitude": 60.75,
        "longitude": -120.85,
        "image": "https://plus.unsplash.com/premium_photo-1671656349322-41de944d259b?ixlib=rb-4.0.3&ixid=M3wxMjA3fDB8MHxzZWFyY2h8NjV8fHBvcnRyYWl0fGVufDB8fDB8fHww&auto=format&fit=crop&w=500&q=60"
    },
    {
        "name": "Sophia",
        "latitude": 40.7128,
        "longitude": -74.006,
        "image": "https://images.unsplash.com/photo-1539571696357-5a69c17a67c6?ixlib=rb-4.0.3&ixid=M3wxMjA3fDB8MHxzZWFyY2h8OTB8fHBvcnRyYWl0fGVufDB8fDB8fHww&auto=format&fit=crop&w=500&q=60"
    }
]
